<?xml version="1.0" encoding="UTF-8"?>
<kml xmlns="http://www.opengis.net/kml/2.2">
  <Document>
    <name>Terrenos en evaluacion NB</name>
    <Style id="icon-1603-A52714-nodesc-normal">
      <IconStyle>
        <color>ff1427a5</color>
        <scale>1</scale>
        <Icon>
          <href>https://www.gstatic.com/mapspro/images/stock/503-wht-blank_maps.png</href>
        </Icon>
      </IconStyle>
      <LabelStyle>
        <scale>0</scale>
      </LabelStyle>
      <BalloonStyle>
        <text><![CDATA[<h3>$[name]</h3>]]></text>
      </BalloonStyle>
    </Style>
    <Style id="icon-1603-A52714-nodesc-highlight">
      <IconStyle>
        <color>ff1427a5</color>
        <scale>1</scale>
        <Icon>
          <href>https://www.gstatic.com/mapspro/images/stock/503-wht-blank_maps.png</href>
        </Icon>
      </IconStyle>
      <LabelStyle>
        <scale>1</scale>
      </LabelStyle>
      <BalloonStyle>
        <text><![CDATA[<h3>$[name]</h3>]]></text>
      </BalloonStyle>
    </Style>
    <StyleMap id="icon-1603-A52714-nodesc">
      <Pair>
        <key>normal</key>
        <styleUrl>#icon-1603-A52714-nodesc-normal</styleUrl>
      </Pair>
      <Pair>
        <key>highlight</key>
        <styleUrl>#icon-1603-A52714-nodesc-highlight</styleUrl>
      </Pair>
    </StyleMap>
    <Placemark>
      <name>Sucre - Miraflores</name>
      <styleUrl>#icon-1603-A52714-nodesc</styleUrl>
      <Point>
        <coordinates>
          -77.0255466,-12.1267196,0
        </coordinates>
      </Point>
    </Placemark>
    <Placemark>
      <name>Salaverry</name>
      <styleUrl>#icon-1603-A52714-nodesc</styleUrl>
      <Point>
        <coordinates>
          -77.055247,-12.0972499,0
        </coordinates>
      </Point>
    </Placemark>
    <Placemark>
      <name>Gaviotas</name>
      <styleUrl>#icon-1603-A52714-nodesc</styleUrl>
      <Point>
        <coordinates>
          -77.0076873,-12.1831831,0
        </coordinates>
      </Point>
    </Placemark>
    <Placemark>
      <name>Roosevelt</name>
      <styleUrl>#icon-1603-A52714-nodesc</styleUrl>
      <Point>
        <coordinates>
          -77.0180239,-12.1211376,0
        </coordinates>
      </Point>
    </Placemark>
    <Placemark>
      <name>Precursores</name>
      <styleUrl>#icon-1603-A52714-nodesc</styleUrl>
      <Point>
        <coordinates>
          -77.0981509,-12.0695752,0
        </coordinates>
      </Point>
    </Placemark>
    <Placemark>
      <name>Jr.Chamaya Breña</name>
      <styleUrl>#icon-1603-A52714-nodesc</styleUrl>
      <Point>
        <coordinates>
          -77.0528709,-12.0512025,0
        </coordinates>
      </Point>
    </Placemark>
    <Placemark>
      <name><![CDATA[Avenida Tingo María & Avenida Arica]]></name>
      <styleUrl>#icon-1603-A52714-nodesc</styleUrl>
      <Point>
        <coordinates>
          -77.0574266,-12.0556155,0
        </coordinates>
      </Point>
    </Placemark>
  </Document>
</kml>
